{
  "major_projects": [
    {
      "name": "Binghatti Circle ",
      "lat": 25.05294418709706,
      "lng": 55.20620405464655,
      "type": "Key Launch",
      "value": "AED 0.8B"
    },
    {
      "name": "Binghatti Skyrise",
      "lat": 25.185938395271254,
      "lng": 55.28310831062101,
      "type": "Key Launch",
      "value": "AED 4.4B"
    },
    {
      "name": "Peace Lagoons by Peace Homes",
      "lat": 25.079921704411582,
      "lng": 55.36777350117744,
      "type": "Key Launch",
      "value": "AED 0.6B"
    },
    {
      "name": "Terra Heights",
      "lat": 24.925164383581926,
      "lng": 55.1775646536192,
      "type": "Key Launch",
      "value": "AED 1.9B"
    },
    {
      "name": "Sobha Hartland - Crest Grande",
      "lat": 25.169605364881814,
      "lng": 55.29729600793656,
      "type": "Key Launch",
      "value": "AED 0.3B"
    },
    {
      "name": "Rosehill",
      "lat": 25.098420142302874,
      "lng": 55.26934527323095,
      "type": "Key Launch",
      "value": "AED 1.1B"
    },
    {
      "name": "ROVE HOME DUBAI MARINA",
      "lat": 25.100569662513553,
      "lng": 55.13119595067164,
      "type": "Key Launch",
      "value": "AED 1.2B"
    },
    {
      "name": "CHELSEA RESIDENCES 2 BY DAMAC",
      "lat": 25.266018912817092,
      "lng": 55.28872691872116,
      "type": "Key Launch",
      "value": "AED 2.0B"
    },
    {
      "name": "Sobha Central Phase I",
      "lat": 25.026664216630074,
      "lng": 55.1471905129822,
      "type": "Key Launch",
      "value": "AED 2.0B"
    },
    {
      "name": "Floarea  Grande",
      "lat": 25.06588562504426,
      "lng": 55.22904763245185,
      "type": "Key Launch",
      "value": "AED 0.2B"
    },
    {
      "name": "Skyvue",
      "lat": 25.178975941001344,
      "lng": 55.35741576247489,
      "type": "Key Launch",
      "value": "AED 3.6B"
    },
    {
      "name": "Albero",
      "lat": 25.130992115947503,
      "lng": 55.34479598760055,
      "type": "Key Launch",
      "value": "AED 1.2B"
    },
    {
      "name": "Binghatti Flare 01",
      "lat": 25.03607075669848,
      "lng": 55.18279454197652,
      "type": "Key Launch",
      "value": "AED 0.9B"
    },
    {
      "name": "Binghatti Hillviews",
      "lat": 25.078453083401904,
      "lng": 55.22584575251506,
      "type": "Key Launch",
      "value": "AED 1.7B"
    },
    {
      "name": "Diamondz By Danube ",
      "lat": 25.061582284523396,
      "lng": 55.157950614764125,
      "type": "Key Launch",
      "value": "AED 0.9B"
    },
    {
      "name": "Samana Barari Lagoons",
      "lat": 25.118289670426886,
      "lng": 55.32852522529942,
      "type": "Key Launch",
      "value": "AED 0.6B"
    },
    {
      "name": "DAMAC RIVERSIDE VIEWS - CAPRI 1 ",
      "lat": 24.974390852767907,
      "lng": 55.21176261202775,
      "type": "Key Launch",
      "value": "AED 0.9B"
    },
    {
      "name": "The Valley - Vindera",
      "lat": 24.997521971690325,
      "lng": 55.419853220527266,
      "type": "Key Launch",
      "value": "AED 1.9B"
    },
    {
      "name": "Sobha Solis",
      "lat": 25.049986500041094,
      "lng": 55.24130940089192,
      "type": "Key Launch",
      "value": "AED 2.5B"
    },
    {
      "name": "The Baltimore",
      "lat": 25.059258078186772,
      "lng": 55.188080693853166,
      "type": "Key Launch",
      "value": "AED 0.2B"
    }
  ]
}